{
    "features": [
        {
          "type": "Feature",
          "properties": {
            "COUNTRY": "France",
            "Region": "Auvergne-Rhône-Alpes",
            "Departement": "Ain",
            "Nom": "Crozet",
            "Code": "01170"
          },
          "geometry": {
            "type": "Point",
            "coordinates": [46.27946, 6.014]
          }
        },
        {
          "type": "Feature",
          "properties": {
            "COUNTRY": "France",
            "Region": "Auvergne-Rhône-Alpes",
            "Departement": "Ain",
            "Nom": "Gex",
            "Code": "01170"
          },
          "geometry": {
            "type": "Point",
            "coordinates": [46.33419, 6.05803]
          }
        },
        {
          "type": "Feature",
          "properties": {
            "COUNTRY": "France",
            "Region": "Auvergne-Rhône-Alpes",
            "Departement": "Ain",
            "Nom": "Lelex",
            "Code": "01410"
          },
          "geometry": {
            "type": "Point",
            "coordinates": [46.30317, 5.94051]
          }
        },
        {
          "type": "Feature",
          "properties": {
            "COUNTRY": "France",
            "Region": "Auvergne-Rhône-Alpes",
            "Departement": "Ain",
            "Nom": "Mijoux",
            "Code": "01410"
          },
          "geometry": {
            "type": "Point",
            "coordinates": [46.36647, 5.99677]
          }
        },
        {
          "type": "Feature",
          "properties": {
            "COUNTRY": "France",
            "Region": "Auvergne-Rhône-Alpes",
            "Departement": "Ain",
            "Nom": "Oyonnax",
            "Code": "01100"
          },
          "geometry": {
            "type": "Point",
            "coordinates": [46.25777, 5.65533]
          }
        },
        {
            "type": "Feature",
            "properties": {
              "COUNTRY": "France",
              "Region": "Auvergne-Rhône-Alpes",
              "Departement": "Ain",
              "Nom": "Saint-Etienne-du-Bois",
              "Code": "01350"
            },
            "geometry": {
              "type": "Point",
              "coordinates": [46.28836, 5.29278]
            }
          },
          {
            "type": "Feature",
            "properties": {
              "COUNTRY": "France",
              "Region": "Auvergne-Rhône-Alpes",
              "Departement": "Ardèche",
              "Nom": "Les Vans",
              "Code": "07140"
            },
            "geometry": {
              "type": "Point",
              "coordinates": [44.45373, 4.15248]
            }
          },
          {
            "type": "Feature",
            "properties": {
              "COUNTRY": "France",
              "Region": "Auvergne-Rhône-Alpes",
              "Departement": "Ardèche",
              "Nom": "Payzac",
              "Code": "07230"
            },
            "geometry": {
              "type": "Point",
              "coordinates": [44.40468, 4.13191]
            }
          },
          {
            "type": "Feature",
            "properties": {
              "COUNTRY": "France",
              "Region": "Auvergne-Rhône-Alpes",
              "Departement": "Cantal",
              "Nom": "Dienne",
              "Code": "15300"
            },
            "geometry": {
              "type": "Point",
              "coordinates": [45.15961, 2.7876]
            }
          },
          {
            "type": "Feature",
            "properties": {
              "COUNTRY": "France",
              "Region": "Auvergne-Rhône-Alpes",
              "Departement": "Cantal",
              "Nom": "Marcoles",
              "Code": "15220"
            },
            "geometry": {
              "type": "Point",
              "coordinates": [44.78207, 2.352]
            }
          },
          {
            "type": "Feature",
            "properties": {
              "COUNTRY": "France",
              "Region": "Auvergne-Rhône-Alpes",
              "Departement": "Drome",
              "Nom": "Buis-les-Baronnies",
              "Code": "26170"
            },
            "geometry": {
              "type": "Point",
              "coordinates": [44.27618, 5.27413]
            }
          },
          {
            "type": "Feature",
            "properties": {
              "COUNTRY": "France",
              "Region": "Auvergne-Rhône-Alpes",
              "Departement": "Drome",
              "Nom": "Barret-de-Lioure",
              "Code": "26570"
            },
            "geometry": {
              "type": "Point",
              "coordinates": [44.18615, 5.49348]
            }
          },
          {
            "type": "Feature",
            "properties": {
              "COUNTRY": "France",
              "Region": "Auvergne-Rhône-Alpes",
              "Departement": "Drome",
              "Nom": "Donzere",
              "Code": "26290"
            },
            "geometry": {
              "type": "Point",
              "coordinates": [44.44208, 4.7122]
            }
          },
          {
            "type": "Feature",
            "properties": {
              "COUNTRY": "France",
              "Region": "Auvergne-Rhône-Alpes",
              "Departement": "Drome",
              "Nom": "Ferrassieres",
              "Code": "26570"
            },
            "geometry": {
              "type": "Point",
              "coordinates": [44.1352, 5.47814]
            }
          },
          {
            "type": "Feature",
            "properties": {
              "COUNTRY": "France",
              "Region": "Auvergne-Rhône-Alpes",
              "Departement": "Drome",
              "Nom": "La Garde-Adhemar",
              "Code": "26700"
            },
            "geometry": {
              "type": "Point",
              "coordinates": [44.39318, 4.75565]
            }
          },
          {
            "type": "Feature",
            "properties": {
              "COUNTRY": "France",
              "Region": "Auvergne-Rhône-Alpes",
              "Departement": "Drome",
              "Nom": "La Motte-Chalancon",
              "Code": "26470"
            },
            "geometry": {
              "type": "Point",
              "coordinates": [44.48657, 5.38041]
            }
          },
          {
            "type": "Feature",
            "properties": {
              "COUNTRY": "France",
              "Region": "Auvergne-Rhône-Alpes",
              "Departement": "Drome",
              "Nom": "Montbrun-les-bains",
              "Code": "26570"
            },
            "geometry": {
              "type": "Point",
              "coordinates": [44.17524, 5.44341]
            }
          },
          {
            "type": "Feature",
            "properties": {
              "COUNTRY": "France",
              "Region": "Auvergne-Rhône-Alpes",
              "Departement": "Drome",
              "Nom": "Montfroc",
              "Code": "26560"
            },
            "geometry": {
              "type": "Point",
              "coordinates": [44.17446, 5.63846]
            }
          },
          {
            "type": "Feature",
            "properties": {
              "COUNTRY": "France",
              "Region": "Auvergne-Rhône-Alpes",
              "Departement": "Drome",
              "Nom": "Mollans-sur-Ouvèze",
              "Code": "26170"
            },
            "geometry": {
              "type": "Point",
              "coordinates": [44.23723, 5.19174]
            }
          },
          {
            "type": "Feature",
            "properties": {
              "COUNTRY": "France",
              "Region": "Auvergne-Rhône-Alpes",
              "Departement": "Drome",
              "Nom": "Montelimar",
              "Code": "26200"
            },
            "geometry": {
              "type": "Point",
              "coordinates": [44.55694, 4.74949]
            }
          },
          {
            "type": "Feature",
            "properties": {
              "COUNTRY": "France",
              "Region": "Auvergne-Rhône-Alpes",
              "Departement": "Drome",
              "Nom": "Pierrelatte",
              "Code": "26700"
            },
            "geometry": {
              "type": "Point",
              "coordinates": [44.37775, 4.69698]
            }
          },
          {
            "type": "Feature",
            "properties": {
              "COUNTRY": "France",
              "Region": "Auvergne-Rhône-Alpes",
              "Departement": "Drome",
              "Nom": "Reilhanette",
              "Code": "26570"
            },
            "geometry": {
              "type": "Point",
              "coordinates": [44.16947, 5.42074]
            }
          },
          {
            "type": "Feature",
            "properties": {
              "COUNTRY": "France",
              "Region": "Auvergne-Rhône-Alpes",
              "Departement": "Drome",
              "Nom": "Remuzat",
              "Code": "26510"
            },
            "geometry": {
              "type": "Point",
              "coordinates": [44.41296, 5.35418]
            }
          },
          {
            "type": "Feature",
            "properties": {
              "COUNTRY": "France",
              "Region": "Auvergne-Rhône-Alpes",
              "Departement": "Drome",
              "Nom": "Saint-Paul-Trois-Chateaux",
              "Code": "26130"
            },
            "geometry": {
              "type": "Point",
              "coordinates": [44.34867, 4.76829]
            }
          },
          {
            "type": "Feature",
            "properties": {
              "COUNTRY": "France",
              "Region": "Auvergne-Rhône-Alpes",
              "Departement": "Loire",
              "Nom": "Lorette",
              "Code": "42420"
            },
            "geometry": {
              "type": "Point",
              "coordinates": [45.50872, 4.58169]
            }
          },
          {
            "type": "Feature",
            "properties": {
              "COUNTRY": "France",
              "Region": "Auvergne-Rhône-Alpes",
              "Departement": "Loire",
              "Nom": "Montrond-les-Bains",
              "Code": "42210"
            },
            "geometry": {
              "type": "Point",
              "coordinates": [45.64441, 4.23143]
            }
          },
          {
            "type": "Feature",
            "properties": {
              "COUNTRY": "France",
              "Region": "Auvergne-Rhône-Alpes",
              "Departement": "Loire",
              "Nom": "Rive-de-Gier",
              "Code": "42800"
            },
            "geometry": {
              "type": "Point",
              "coordinates": [45.52769, 4.61534]
            }
          },
          {
            "type": "Feature",
            "properties": {
              "COUNTRY": "France",
              "Region": "Auvergne-Rhône-Alpes",
              "Departement": "Loire",
              "Nom": "Saint-Chamond",
              "Code": "42400"
            },
            "geometry": {
              "type": "Point",
              "coordinates": [45.47608, 4.51271]
            }
          },
          {
            "type": "Feature",
            "properties": {
              "COUNTRY": "France",
              "Region": "Auvergne-Rhône-Alpes",
              "Departement": "Loire",
              "Nom": "Saint-Paul-en-Jarez",
              "Code": "42740"
            },
            "geometry": {
              "type": "Point",
              "coordinates": [45.48278, 4.57414]
            }
          },
          {
            "type": "Feature",
            "properties": {
              "COUNTRY": "France",
              "Region": "Auvergne-Rhône-Alpes",
              "Departement": "Puy-de-Dôme",
              "Nom": "Besse-et-Saint-Anastaise",
              "Code": "63610"
            },
            "geometry": {
              "type": "Point",
              "coordinates": [45.49789, 2.90129]
            }
          },
          {
            "type": "Feature",
            "properties": {
              "COUNTRY": "France",
              "Region": "Auvergne-Rhône-Alpes",
              "Departement": "Puy-de-Dôme",
              "Nom": "La Bourboule",
              "Code": "63150"
            },
            "geometry": {
              "type": "Point",
              "coordinates": [45.58724, 2.73899]
            }
          },
          {
            "type": "Feature",
            "properties": {
              "COUNTRY": "France",
              "Region": "Auvergne-Rhône-Alpes",
              "Departement": "Puy-de-Dôme",
              "Nom": "Murol",
              "Code": "63790"
            },
            "geometry": {
              "type": "Point",
              "coordinates": [45.57343, 2.94347]
            }
          },
          {
            "type": "Feature",
            "properties": {
              "COUNTRY": "France",
              "Region": "Auvergne-Rhône-Alpes",
              "Departement": "Puy-de-Dôme",
              "Nom": "Saint-Ours",
              "Code": "63230"
            },
            "geometry": {
              "type": "Point",
              "coordinates": [45.84965, 2.89255]
            }
          },
          {
            "type": "Feature",
            "properties": {
              "COUNTRY": "France",
              "Region": "Auvergne-Rhône-Alpes",
              "Departement": "Rhône",
              "Nom": "Beauvallon",
              "Code": "69700"
            },
            "geometry": {
              "type": "Point",
              "coordinates": [45.58503, 4.69636]
            }
          },
          {
            "type": "Feature",
            "properties": {
              "COUNTRY": "France",
              "Region": "Auvergne-Rhône-Alpes",
              "Departement": "Rhône",
              "Nom": "Saint-Martin-en-Haut",
              "Code": "69850"
            },
            "geometry": {
              "type": "Point",
              "coordinates": [45.66017, 4.5586]
            }
          },
          {
            "type": "Feature",
            "properties": {
              "COUNTRY": "France",
              "Region": "Auvergne-Rhône-Alpes",
              "Departement": "Savoie",
              "Nom": "Cohennoz",
              "Code": "73088"
            },
            "geometry": {
              "type": "Point",
              "coordinates": [45.75737, 6.48116]
            }
          },
          {
            "type": "Feature",
            "properties": {
              "COUNTRY": "France",
              "Region": "Auvergne-Rhône-Alpes",
              "Departement": "Savoie",
              "Nom": "Crest-Voland",
              "Code": "73590"
            },
            "geometry": {
              "type": "Point",
              "coordinates": [45.7951, 6.50536]
            }
          },
          {
            "type": "Feature",
            "properties": {
              "COUNTRY": "France",
              "Region": "Auvergne-Rhône-Alpes",
              "Departement": "Savoie",
              "Nom": "Flumet",
              "Code": "73590"
            },
            "geometry": {
              "type": "Point",
              "coordinates": [45.8193, 6.51638]
            }
          },
          {
            "type": "Feature",
            "properties": {
              "COUNTRY": "France",
              "Region": "Auvergne-Rhône-Alpes",
              "Departement": "Savoie",
              "Nom": "Hauteluce",
              "Code": "73620"
            },
            "geometry": {
              "type": "Point",
              "coordinates": [45.75054, 6.5855]
            }
          },
          {
            "type": "Feature",
            "properties": {
              "COUNTRY": "France",
              "Region": "Auvergne-Rhône-Alpes",
              "Departement": "Savoie",
              "Nom": "Notre-Dame-de-Bellecombe",
              "Code": "73590"
            },
            "geometry": {
              "type": "Point",
              "coordinates": [45.80966, 6.51871]
            }
          },
          {
            "type": "Feature",
            "properties": {
              "COUNTRY": "France",
              "Region": "Auvergne-Rhône-Alpes",
              "Departement": "Haute-Savoie",
              "Nom": "Araches-la-Frasse",
              "Code": "74300"
            },
            "geometry": {
              "type": "Point",
              "coordinates": [46.04332, 6.63275]
            }
          },
          {
            "type": "Feature",
            "properties": {
              "COUNTRY": "France",
              "Region": "Auvergne-Rhône-Alpes",
              "Departement": "Haute-Savoie",
              "Nom": "Chamonix-Mont-Blanc",
              "Code": "74400"
            },
            "geometry": {
              "type": "Point",
              "coordinates": [45.92369, 6.86943]
            }
          },
          {
            "type": "Feature",
            "properties": {
              "COUNTRY": "France",
              "Region": "Auvergne-Rhône-Alpes",
              "Departement": "Haute-Savoie",
              "Nom": "Cluses",
              "Code": "74300"
            },
            "geometry": {
              "type": "Point",
              "coordinates": [46.06039, 6.58058]
            }
          },
          {
            "type": "Feature",
            "properties": {
              "COUNTRY": "France",
              "Region": "Auvergne-Rhône-Alpes",
              "Departement": "Haute-Savoie",
              "Nom": "Megeve",
              "Code": "74120"
            },
            "geometry": {
              "type": "Point",
              "coordinates": [45.85687, 6.61775]
            }
          },
          {
            "type": "Feature",
            "properties": {
              "COUNTRY": "France",
              "Region": "Auvergne-Rhône-Alpes",
              "Departement": "Haute-Savoie",
              "Nom": "Morillon",
              "Code": "74440"
            },
            "geometry": {
              "type": "Point",
              "coordinates": [46.08348, 6.67626]
            }
          },
          {
            "type": "Feature",
            "properties": {
              "COUNTRY": "France",
              "Region": "Auvergne-Rhône-Alpes",
              "Departement": "Haute-Savoie",
              "Nom": "Praz-sur-Arly",
              "Code": "74440"
            },
            "geometry": {
              "type": "Point",
              "coordinates": [45.83775, 6.57176]
            }
          },
          {
            "type": "Feature",
            "properties": {
              "COUNTRY": "France",
              "Region": "Auvergne-Rhône-Alpes",
              "Departement": "Haute-Savoie",
              "Nom": "Samoens",
              "Code": "74340"
            },
            "geometry": {
              "type": "Point",
              "coordinates": [46.08404, 6.72817]
            }
          },
          {
            "type": "Feature",
            "properties": {
              "COUNTRY": "France",
              "Region": "Auvergne-Rhône-Alpes",
              "Departement": "Haute-Savoie",
              "Nom": "Sixt-Fer-a-Cheval",
              "Code": "74740"
            },
            "geometry": {
              "type": "Point",
              "coordinates": [46.05471, 6.77611]
            }
          }
    ]
}