{
    "features": [
      {
          "type": "Feature",
          "properties": {
            "COUNTRY": "France",
            "Region": "Bretagne",
            "Departement": "Côtes-d'Armor",
            "Nom": "Binic",
            "Code": "22520"
          },
          "geometry": {
            "type": "Point",
            "coordinates": [48.60148, -2.82492]
          }
        },
        {
            "type": "Feature",
            "properties": {
              "COUNTRY": "France",
              "Region": "Bretagne",
              "Departement": "Côtes-d'Armor",
              "Nom": "Pordic",
              "Code": "22590"
            },
            "geometry": {
              "type": "Point",
              "coordinates": [48.57199, -2.81417]
            }
          },
          {
            "type": "Feature",
            "properties": {
              "COUNTRY": "France",
              "Region": "Bretagne",
              "Departement": "Finistère",
              "Nom": "Brennilis",
              "Code": "29690"
            },
            "geometry": {
              "type": "Point",
              "coordinates": [48.35728, -3.85065]
            }
          },
          {
            "type": "Feature",
            "properties": {
              "COUNTRY": "France",
              "Region": "Bretagne",
              "Departement": "Finistère",
              "Nom": "Crozon",
              "Code": "29160"
            },
            "geometry": {
              "type": "Point",
              "coordinates": [48.2463, -4.48956]
            }
          },
          {
            "type": "Feature",
            "properties": {
              "COUNTRY": "France",
              "Region": "Bretagne",
              "Departement": "Finistère",
              "Nom": "Douarnenez",
              "Code": "29100"
            },
            "geometry": {
              "type": "Point",
              "coordinates": [48.09322, -4.32861]
            }
          },
          {
            "type": "Feature",
            "properties": {
              "COUNTRY": "France",
              "Region": "Bretagne",
              "Departement": "Finistère",
              "Nom": "Kerlouan",
              "Code": "29890"
            },
            "geometry": {
              "type": "Point",
              "coordinates": [48.64517, -4.36564]
            }
          },
          {
            "type": "Feature",
            "properties": {
              "COUNTRY": "France",
              "Region": "Bretagne",
              "Departement": "Finistère",
              "Nom": "Lanildut",
              "Code": "29840"
            },
            "geometry": {
              "type": "Point",
              "coordinates": [48.47338, -4.7475]
            }
          },
          {
            "type": "Feature",
            "properties": {
              "COUNTRY": "France",
              "Region": "Bretagne",
              "Departement": "Finistère",
              "Nom": "Le Conquet",
              "Code": "29217"
            },
            "geometry": {
              "type": "Point",
              "coordinates": [48.35996, -4.77458]
            }
          },
          {
            "type": "Feature",
            "properties": {
              "COUNTRY": "France",
              "Region": "Bretagne",
              "Departement": "Finistère",
              "Nom": "Le Faou",
              "Code": "29590"
            },
            "geometry": {
              "type": "Point",
              "coordinates": [48.29446, -4.1796]
            }
          },
          {
            "type": "Feature",
            "properties": {
              "COUNTRY": "France",
              "Region": "Bretagne",
              "Departement": "Finistère",
              "Nom": "Locmaria-Plouzané",
              "Code": "29280"
            },
            "geometry": {
              "type": "Point",
              "coordinates": [48.37014, -4.6508]
            }
          },
          {
            "type": "Feature",
            "properties": {
              "COUNTRY": "France",
              "Region": "Bretagne",
              "Departement": "Finistère",
              "Nom": "Plogoff",
              "Code": "29770"
            },
            "geometry": {
              "type": "Point",
              "coordinates": [48.03667, -4.66649]
            }
          },
          {
            "type": "Feature",
            "properties": {
              "COUNTRY": "France",
              "Region": "Bretagne",
              "Departement": "Finistère",
              "Nom": "Plomodiern",
              "Code": "29550"
            },
            "geometry": {
              "type": "Point",
              "coordinates": [48.18148, -4.23274]
            }
          },
          {
            "type": "Feature",
            "properties": {
              "COUNTRY": "France",
              "Region": "Bretagne",
              "Departement": "Finistère",
              "Nom": "Plougonvelin",
              "Code": "29217"
            },
            "geometry": {
              "type": "Point",
              "coordinates": [48.34142, -4.71871]
            }
          },
          {
            "type": "Feature",
            "properties": {
              "COUNTRY": "France",
              "Region": "Bretagne",
              "Departement": "Finistère",
              "Nom": "Quimperlé",
              "Code": "29300"
            },
            "geometry": {
              "type": "Point",
              "coordinates": [47.87258, -3.54754]
            }
          },
          {
            "type": "Feature",
            "properties": {
              "COUNTRY": "France",
              "Region": "Bretagne",
              "Departement": "Finistère",
              "Nom": "Roscanvel",
              "Code": "29570"
            },
            "geometry": {
              "type": "Point",
              "coordinates": [48.31535, -4.54802]
            }
          },
          {
            "type": "Feature",
            "properties": {
              "COUNTRY": "France",
              "Region": "Bretagne",
              "Departement": "Finistère",
              "Nom": "Saint-Nic",
              "Code": "29550"
            },
            "geometry": {
              "type": "Point",
              "coordinates": [48.20213, -4.28319]
            }
          },
          {
            "type": "Feature",
            "properties": {
              "COUNTRY": "France",
              "Region": "Bretagne",
              "Departement": "Finistère",
              "Nom": "Saint-Thégonnec Loc-Eguiner",
              "Code": "29410"
            },
            "geometry": {
              "type": "Point",
              "coordinates": [48.52124, -3.94684]
            }
          },
          {
            "type": "Feature",
            "properties": {
              "COUNTRY": "France",
              "Region": "Bretagne",
              "Departement": "Finistère",
              "Nom": "Tregunc",
              "Code": "29910"
            },
            "geometry": {
              "type": "Point",
              "coordinates": [47.85544, -3.85267]
            }
          }
    ]
}